City ID,City,Country,Lat,Lng,Max Temp,Humidity,Cloudiness,Wind Speed,Description
0,Longyearbyen,SJ,78.2186,15.6401,24.64,68,75,8.05,broken clouds
1,Hualmay,PE,-11.0964,-77.6139,74.39,69,100,8.61,overcast clouds
2,Cedar City,US,37.6775,-113.0619,50.4,40,0,10.36,clear sky
3,Batemans Bay,AU,-35.7167,150.1833,67.19,83,100,6.31,overcast clouds
4,Khatanga,RU,71.9667,102.5,-5.48,97,95,13.44,overcast clouds
5,Mataura,NZ,-46.1927,168.8643,58.48,92,100,2.55,overcast clouds
6,Rikitea,PF,-23.1203,-134.9692,79.21,72,89,18.81,overcast clouds
7,Kapaa,US,22.0752,-159.319,78.19,71,0,3.0,clear sky
8,Kaitangata,NZ,-46.2817,169.8464,58.53,92,89,3.38,overcast clouds
9,Arraial Do Cabo,BR,-22.9661,-42.0278,71.46,88,100,4.61,overcast clouds
10,Barrow,US,71.2906,-156.7887,-27.38,62,100,8.05,haze
11,Tuktoyaktuk,CA,69.4541,-133.0374,-13.0,70,100,12.66,light snow
12,Imeni Poliny Osipenko,RU,52.4201,136.4853,0.09,99,100,0.43,overcast clouds
13,Klaksvik,FO,62.2266,-6.589,27.52,58,85,12.75,overcast clouds
14,Hermanus,ZA,-34.4187,19.2345,64.9,77,0,3.47,clear sky
15,Nizhniy Tsasuchey,RU,50.5167,115.1333,-11.18,95,37,5.75,scattered clouds
16,Moncton,CA,46.1159,-64.8019,36.09,87,100,11.5,overcast clouds
17,Bluff,NZ,-46.6,168.3333,58.8,83,65,12.93,broken clouds
18,Albany,US,42.6001,-73.9662,45.27,69,25,9.86,scattered clouds
19,Punta Arenas,CL,-53.15,-70.9167,51.91,54,40,31.07,scattered clouds
20,Hobart,AU,-42.8794,147.3294,57.06,66,0,8.05,clear sky
21,Paita,PE,-5.0892,-81.1144,82.96,61,47,14.25,scattered clouds
22,Atuona,PF,-9.8,-139.0333,78.35,75,0,16.37,clear sky
23,Tuatapere,NZ,-46.1333,167.6833,58.82,90,93,2.66,overcast clouds
24,Atar,MR,20.5169,-13.0499,74.41,13,3,12.06,clear sky
25,Plettenberg Bay,ZA,-34.0527,23.3716,65.05,83,77,0.45,broken clouds
26,Dingle,PH,10.9995,122.6711,75.96,82,100,9.35,overcast clouds
27,Ushuaia,AR,-54.8,-68.3,49.62,71,75,29.93,broken clouds
28,New Norfolk,AU,-42.7826,147.0587,56.7,56,34,2.37,scattered clouds
29,Thompson,CA,55.7435,-97.8558,-9.24,70,100,14.97,overcast clouds
30,Payo,ID,-3.7508,103.6372,70.65,86,100,1.83,overcast clouds
31,Fonte Boa,BR,-2.4959,-66.2662,83.08,77,100,2.15,overcast clouds
32,Coari,BR,-4.085,-63.1414,81.73,89,100,1.86,overcast clouds
33,Barcelos,PT,41.5388,-8.6151,56.91,76,95,2.37,overcast clouds
34,Boyolangu,ID,-8.1181,111.8935,74.53,90,100,3.76,light rain
35,Ntcheu,MW,-14.8203,34.6359,63.63,93,76,2.3,broken clouds
36,Vaini,TO,-21.2,-175.2,81.5,80,81,21.97,broken clouds
37,Bam,IR,29.106,58.357,57.67,28,0,5.37,clear sky
38,Along,IN,28.1667,94.7667,52.57,98,100,1.7,overcast clouds
39,Dwarka,IN,22.2394,68.9678,69.42,49,0,11.63,clear sky
40,Port Moresby,PG,-9.4431,147.1797,74.53,83,100,7.85,overcast clouds
41,Monastyrshchina,RU,54.3496,31.838,31.1,89,100,9.24,overcast clouds
42,Butaritari,KI,3.0707,172.7902,81.18,79,24,17.31,light rain
43,Itoman,JP,26.1247,127.6694,60.82,74,100,5.75,overcast clouds
44,Esperance,AU,-33.8667,121.9,75.04,47,14,20.22,few clouds
45,Saskylakh,RU,71.9167,114.0833,4.82,94,100,13.44,light snow
46,Kavieng,PG,-2.5744,150.7967,80.6,80,71,7.31,light rain
47,The Valley,AI,18.217,-63.0578,82.26,69,40,13.8,scattered clouds
48,Fortuna,US,40.5982,-124.1573,80.85,49,20,1.99,few clouds
49,Port Elizabeth,ZA,-33.918,25.5701,64.69,82,0,3.44,clear sky
50,Boddam,GB,57.4667,-1.7833,36.72,61,57,28.25,broken clouds
51,Ranong,TH,9.9658,98.6348,75.7,90,100,4.36,overcast clouds
52,Mar Del Plata,AR,-38.0023,-57.5575,84.22,86,0,21.99,clear sky
53,Mayo,US,38.8876,-76.5119,61.21,33,75,9.22,broken clouds
54,Faanui,PF,-16.4833,-151.75,81.18,75,56,15.37,broken clouds
55,Saint Anthony,US,45.0205,-93.218,27.3,76,100,16.11,overcast clouds
56,Riyadh,SA,24.6877,46.7219,68.14,22,0,13.94,clear sky
57,Laohekou,CN,32.3858,111.6678,41.13,67,98,3.38,overcast clouds
58,Ishigaki,JP,24.3448,124.1572,67.14,78,100,18.99,overcast clouds
59,Busselton,AU,-33.65,115.3333,64.09,62,0,4.68,clear sky
60,Bredasdorp,ZA,-34.5322,20.0403,60.12,77,0,2.3,clear sky
61,Lavrentiya,RU,65.5833,-171.0,-29.78,97,62,4.63,broken clouds
62,Georgetown,MY,5.4112,100.3354,78.89,90,20,1.14,few clouds
63,Dikson,RU,73.5069,80.5464,7.29,91,100,27.6,overcast clouds
64,Tual,ID,-5.6667,132.75,79.75,82,100,1.48,light rain
65,Hilo,US,19.7297,-155.09,76.73,64,0,4.61,clear sky
66,Gorontalo,ID,0.5412,123.0595,74.62,95,100,2.89,overcast clouds
67,Norman Wells,CA,65.282,-126.8329,-11.16,70,100,16.11,light snow
68,Taltal,CL,-25.4,-70.4833,68.14,72,25,4.14,scattered clouds
69,Fallon,US,39.4735,-118.7774,58.42,35,20,0.0,few clouds
70,Saint George,US,37.1041,-113.5841,63.43,29,0,4.0,clear sky
71,Coihaique,CL,-45.5752,-72.0662,59.61,38,20,12.66,few clouds
72,Yellowknife,CA,62.456,-114.3525,-7.58,81,75,11.5,broken clouds
73,Muriti,TZ,-1.9833,32.9167,74.08,68,100,7.65,overcast clouds
74,Bac Lieu,VN,9.285,105.7244,78.03,82,100,13.22,overcast clouds
75,Hasaki,JP,35.7333,140.8333,34.2,80,100,29.44,light snow
76,Destin,US,30.3935,-86.4958,72.43,46,0,11.5,clear sky
77,Am Timan,TD,11.0297,20.2827,80.82,12,1,6.46,clear sky
78,Fengxian,CN,34.7039,116.5872,36.23,73,99,3.44,overcast clouds
79,Airai,TL,-8.9266,125.4092,60.33,92,100,1.48,overcast clouds
80,Lompoc,US,34.6391,-120.4579,88.11,20,0,6.91,clear sky
81,Koumac,NC,-20.5667,164.2833,79.84,88,100,21.18,overcast clouds
82,Suntar,RU,62.1444,117.6319,-29.99,100,99,2.64,overcast clouds
83,Fare,PF,-16.7,-151.0167,81.43,73,98,15.73,overcast clouds
84,Souillac,MU,-20.5167,57.5167,77.38,88,40,2.3,scattered clouds
85,San Patricio,US,28.017,-97.5169,73.38,35,100,4.34,overcast clouds
86,Kodiak,US,57.79,-152.4072,27.91,80,100,0.0,overcast clouds
87,Ancud,CL,-41.8697,-73.8203,63.43,49,4,13.76,clear sky
88,San Quintin,MX,30.4833,-115.95,72.39,27,0,8.32,clear sky
89,Kambove,CD,-10.8764,26.5969,62.98,93,100,2.93,light rain
90,Qaanaaq,GL,77.484,-69.3632,-20.85,57,8,7.38,clear sky
91,Leh,IN,34.1667,77.5833,-6.7,90,94,3.58,overcast clouds
92,Avarua,CK,-21.2078,-159.775,80.65,74,20,8.05,few clouds
93,Luderitz,NA,-26.6481,15.1594,73.53,52,3,18.77,clear sky
94,Muravlenko,RU,63.7898,74.523,-3.71,90,31,12.93,scattered clouds
95,Bambous Virieux,MU,-20.3428,57.7575,77.25,88,40,2.3,scattered clouds
96,Benguela,AO,-12.5763,13.4055,76.39,69,100,5.32,overcast clouds
97,Asau,RO,46.4333,26.4,38.75,91,9,6.87,clear sky
98,Rakaia,NZ,-43.75,172.0167,68.72,70,99,3.0,overcast clouds
99,San Cristobal,VE,7.7669,-72.225,78.98,50,73,1.68,broken clouds
100,Hirado,JP,33.3597,129.5531,45.36,50,61,8.95,broken clouds
101,Raahe,FI,64.6833,24.4833,33.89,77,92,19.91,overcast clouds
102,Cape Town,ZA,-33.9258,18.4232,68.09,62,0,8.05,clear sky
103,East London,ZA,-33.0153,27.9116,71.65,79,9,4.18,clear sky
104,Olyka,UA,50.7186,25.8125,40.93,76,100,12.06,overcast clouds
105,Puerto Ayora,EC,-0.7393,-90.3518,84.16,86,96,7.0,overcast clouds
106,Port Alfred,ZA,-33.5906,26.891,70.92,79,81,7.63,broken clouds
107,Tiarei,PF,-17.5333,-149.3333,84.22,75,30,13.87,scattered clouds
108,Charters Towers,AU,-20.1,146.2667,71.91,89,93,6.85,overcast clouds
109,Lorengau,PG,-2.0226,147.2712,80.08,82,100,6.35,overcast clouds
110,Rincon,US,32.296,-81.2354,70.86,31,64,6.17,broken clouds
111,Maniitsoq,GL,65.4167,-52.9,15.71,91,100,7.99,overcast clouds
112,Qarqin,AF,37.4185,66.0436,53.58,29,55,19.64,broken clouds
113,Cidreira,BR,-30.1811,-50.2056,76.23,74,1,16.46,clear sky
114,Thessalon,CA,46.2501,-83.5666,23.76,78,60,10.18,broken clouds
115,Margate,GB,51.3813,1.3862,41.76,71,54,1.99,broken clouds
116,Kiunga,PG,-6.1219,141.2906,73.06,100,100,0.67,moderate rain
117,Avera,US,33.194,-82.5271,69.39,29,10,8.55,clear sky
118,Kanniyakumari,IN,8.0833,77.5667,77.7,83,83,12.62,broken clouds
119,Frontera,MX,26.9333,-101.45,70.32,30,75,8.05,broken clouds
120,Tselinnoye,RU,53.0833,85.6667,-17.57,100,68,2.48,broken clouds
121,Oriximina,BR,-1.7656,-55.8661,85.14,66,77,3.56,broken clouds
122,Aykhal,RU,66.0,111.5,-4.59,92,99,4.85,overcast clouds
123,Nikolskoye,RU,59.7035,30.7861,36.88,90,100,10.27,overcast clouds
124,Torbay,CA,47.6666,-52.7314,39.76,81,20,8.05,few clouds
125,Clyde River,CA,70.4692,-68.5914,-18.17,69,75,5.75,broken clouds
126,Rawson,AR,-43.3002,-65.1023,67.41,30,71,13.6,broken clouds
127,Mokhsogollokh,RU,61.4681,128.9203,-32.42,100,54,3.06,broken clouds
128,Leningradskiy,RU,69.3833,178.4167,-19.12,97,100,4.79,overcast clouds
129,Wairoa,NZ,-39.0333,177.3667,76.6,81,92,1.99,overcast clouds
130,Jamestown,US,42.097,-79.2353,38.52,53,92,3.0,overcast clouds
131,Provideniya,RU,64.3833,-173.3,-19.93,92,47,3.69,scattered clouds
132,Olafsvik,IS,64.8945,-23.7142,34.5,57,34,23.15,scattered clouds
133,Carnarvon,AU,-24.8667,113.6333,78.87,73,75,8.05,broken clouds
134,Talara,PE,-4.5772,-81.2719,83.16,57,20,10.36,few clouds
135,Half Moon Bay,US,37.4636,-122.4286,76.05,31,0,26.46,clear sky
136,Saint-Pierre,RE,-21.3393,55.4781,74.88,78,20,4.61,few clouds
137,Castro,BR,-24.7911,-50.0119,75.07,65,37,5.53,scattered clouds
138,Monrovia,LR,6.3005,-10.7969,80.37,83,5,8.28,clear sky
139,Nago,JP,26.5881,127.9761,60.87,71,53,6.82,broken clouds
140,Ponta Delgada,PT,37.7333,-25.6667,60.49,77,20,8.05,few clouds
141,Kuching,MY,1.55,110.3333,73.62,100,40,3.0,light rain
142,Tiksi,RU,71.6872,128.8694,-10.12,92,100,16.4,overcast clouds
143,Termiz,UZ,37.2242,67.2783,46.49,46,0,9.22,clear sky
144,Umkomaas,ZA,-30.2067,30.7978,77.59,88,29,3.6,scattered clouds
145,Chapais,CA,49.7834,-74.8492,22.78,94,100,11.68,light snow
146,Kirakira,SB,-10.4544,161.9205,78.96,85,100,5.53,overcast clouds
147,Southampton,GB,50.904,-1.4043,41.86,78,0,5.75,clear sky
148,North Platte,US,41.1239,-100.7654,61.12,32,99,8.01,overcast clouds
149,Tabou,CI,4.423,-7.3528,79.61,88,4,7.02,clear sky
150,Los Llanos De Aridane,ES,28.6585,-17.9182,71.35,33,0,12.66,clear sky
151,Boden,SE,65.8252,21.6886,28.4,93,100,3.94,overcast clouds
152,Umm Lajj,SA,25.0213,37.2685,64.0,55,0,13.73,clear sky
153,Beringovskiy,RU,63.05,179.3167,-27.78,94,25,2.93,scattered clouds
154,Kanker,IN,20.2719,81.4931,62.62,81,16,3.49,few clouds
155,Novichikha,RU,52.204,81.3877,-17.46,100,95,2.3,overcast clouds
156,Codrington,AU,-38.2667,141.9667,56.89,84,28,8.75,scattered clouds
157,Comodoro Rivadavia,AR,-45.8667,-67.5,62.46,29,40,8.05,scattered clouds
158,Posyet,RU,42.6508,130.8046,24.39,81,36,4.09,scattered clouds
159,Ahipara,NZ,-35.1667,173.1667,73.62,95,99,9.8,overcast clouds
160,Cherskiy,RU,68.75,161.3,-35.21,99,100,6.53,overcast clouds
161,Mount Gambier,AU,-37.8333,140.7667,48.11,93,100,0.0,overcast clouds
162,Asosa,ET,10.0667,34.5333,70.36,32,2,3.87,clear sky
163,San Carlos Del Zulia,VE,9.0,-71.9135,88.68,55,44,7.67,scattered clouds
164,Port Macquarie,AU,-31.4333,152.9167,66.16,74,92,7.83,overcast clouds
165,Adrar,MR,20.5022,-10.0711,69.08,15,93,11.54,overcast clouds
166,Candolim,IN,15.5181,73.7626,73.27,66,6,8.86,clear sky
167,Dunedin,NZ,-45.8742,170.5036,60.58,90,6,3.83,clear sky
168,Bengkulu,ID,-3.8004,102.2655,75.2,78,100,5.17,overcast clouds
169,Unity,CA,52.4501,-109.1682,39.25,80,42,27.07,scattered clouds
170,Surt,LY,31.2089,16.5887,58.19,62,100,7.07,overcast clouds
171,Ardahan,TR,41.1087,42.7022,6.75,98,79,3.89,broken clouds
172,Salalah,OM,17.0151,54.0924,73.49,64,0,4.61,clear sky
173,Egvekinot,RU,66.3167,-179.1667,-25.89,88,28,4.68,scattered clouds
174,Kusti,SD,13.1629,32.6635,76.84,17,0,13.58,clear sky
175,Gizo,SB,-8.103,156.8419,80.62,80,99,6.87,moderate rain
176,Guerrero Negro,MX,27.9769,-114.0611,74.05,25,0,2.82,clear sky
177,Bilma,NE,18.6853,12.9164,66.13,16,0,7.92,clear sky
178,Tokyo,JP,35.6895,139.6917,36.63,93,75,19.57,moderate rain
179,Trairi,BR,-3.2778,-39.2689,82.49,68,100,7.54,overcast clouds
180,Myaundzha,RU,63.0494,147.1858,-27.63,97,99,3.13,overcast clouds
181,Zhigansk,RU,66.7697,123.3711,-29.56,97,99,11.21,overcast clouds
182,Ilulissat,GL,69.2167,-51.1,-2.18,60,75,1.14,broken clouds
183,Bethel,US,41.3712,-73.414,51.93,49,9,1.99,clear sky
184,Muros,ES,42.7762,-9.0603,54.09,93,100,5.82,overcast clouds
185,Svetlogorsk,BY,52.6333,29.7333,33.48,95,97,7.05,overcast clouds
186,Ovre Ardal,NO,61.3167,7.8,25.68,99,94,1.45,overcast clouds
187,Simao,CN,22.7886,100.9748,48.47,47,36,0.49,scattered clouds
188,Hamilton,US,39.1834,-84.5333,46.99,56,20,11.5,few clouds
189,Lebu,CL,-37.6167,-73.65,61.21,64,90,26.11,overcast clouds
190,Hithadhoo,MV,-0.6,73.0833,81.46,70,100,6.89,overcast clouds
191,Mana,GF,5.6592,-53.7767,80.26,75,65,11.01,broken clouds
192,Middletown,US,39.5151,-84.3983,46.54,65,40,13.8,scattered clouds
193,Peniche,PT,39.3558,-9.3811,59.11,87,100,3.78,light rain
194,Erzin,TR,36.9559,36.2,50.72,76,31,3.89,scattered clouds
195,Murindo,CO,6.9848,-76.7544,86.77,69,53,3.56,broken clouds
196,Kalmunai,LK,7.4167,81.8167,75.61,86,98,3.24,overcast clouds
197,Mogadishu,SO,2.0371,45.3438,76.96,79,10,22.84,clear sky
198,Ponta Do Sol,PT,32.6667,-17.1,69.71,55,100,7.85,overcast clouds
199,Constitucion,CL,-35.3333,-72.4167,66.25,63,100,7.83,overcast clouds
200,Chegdomyn,RU,51.1167,133.0167,-2.18,99,100,1.3,overcast clouds
201,Biak,ID,-0.9131,122.8766,75.92,83,60,3.0,broken clouds
202,Mangan,IN,27.5167,88.5333,48.7,77,89,5.28,overcast clouds
203,Xingyi,CN,24.1877,102.817,43.7,57,25,4.27,scattered clouds
204,Esna,EG,25.2934,32.554,53.62,39,0,7.78,clear sky
205,Sain Alto,MX,23.5833,-103.25,66.16,6,67,10.51,broken clouds
206,Mount Isa,AU,-20.7333,139.5,80.37,29,45,12.66,scattered clouds
207,Bar Harbor,US,44.3876,-68.2039,44.65,85,100,17.9,overcast clouds
208,Belaya Gora,RU,68.5333,146.4167,-41.78,99,38,4.12,scattered clouds
209,Deolali,IN,19.95,73.8333,62.42,46,60,6.87,broken clouds
210,Makakilo City,US,21.3469,-158.0858,79.12,57,0,5.75,clear sky
211,Mackenzie,CA,55.2999,-123.1698,41.22,42,0,10.36,clear sky
212,Ambovombe,MG,-25.1667,46.0833,74.79,93,34,12.48,scattered clouds
213,Ryotsu,JP,38.0833,138.4333,38.37,65,92,9.04,overcast clouds
214,Leshukonskoye,RU,64.8989,45.7622,23.56,88,100,10.6,overcast clouds
215,Raga,SS,8.4596,25.678,76.91,19,37,5.06,scattered clouds
216,Road Town,VG,18.4167,-64.6167,78.89,83,75,6.91,broken clouds
217,Coquimbo,CL,-29.9533,-71.3436,71.33,60,100,6.91,overcast clouds
218,Papetoai,PF,-17.4961,-149.8729,83.79,73,19,13.4,light rain
219,Madimba,TZ,-10.4,40.3333,79.43,84,100,8.5,overcast clouds
220,Kavaratti,IN,10.5669,72.642,79.07,75,58,14.0,broken clouds
221,Hambantota,LK,6.1241,81.1185,76.12,85,30,5.93,scattered clouds
222,Suba,PH,10.8438,121.0102,79.47,82,91,26.78,overcast clouds
223,Hofn,IS,64.2539,-15.2082,25.29,59,31,6.64,scattered clouds
224,Yamoussoukro,CI,6.8206,-5.2767,84.09,28,5,0.0,haze
225,Montalvo,EC,-1.8,-79.3333,80.78,82,98,3.04,light rain
226,Mezokeresztes,HU,47.8333,20.7,43.97,76,96,5.35,overcast clouds
227,Sao Joao Da Barra,BR,-21.6403,-41.0511,77.09,88,84,9.98,broken clouds
228,Severo-Kurilsk,RU,50.6789,156.125,23.94,75,90,7.81,overcast clouds
229,Havre-Saint-Pierre,CA,50.2334,-63.5986,28.99,93,100,4.61,overcast clouds
230,Victoria,HK,22.2855,114.1577,63.95,88,100,11.01,overcast clouds
231,Dugulubgey,RU,43.6625,43.5369,30.0,86,8,4.47,clear sky
232,Geraldton,AU,-28.7667,114.6,68.41,88,40,8.05,scattered clouds
233,Apricena,IT,41.7839,15.4437,48.02,63,0,4.9,clear sky
234,Robertsport,LR,6.7533,-11.3686,80.1,84,3,6.98,clear sky
235,Quelimane,MZ,-17.8786,36.8883,80.55,78,20,2.3,few clouds
236,Xinmin,CN,41.9908,122.8253,16.05,73,79,8.99,light snow
237,College,US,64.8569,-147.8028,-7.2,78,75,4.61,light snow
238,Aranda De Duero,ES,41.6704,-3.6892,47.35,57,100,2.55,overcast clouds
239,Bahadurganj,IN,26.2667,87.8167,60.53,71,2,6.2,clear sky
240,Cururupu,BR,-1.8283,-44.8683,76.32,88,97,2.62,overcast clouds
241,Sinjar,IQ,36.3209,41.8754,46.56,72,86,4.99,overcast clouds
242,Outjo,NA,-20.1167,16.15,65.82,90,100,14.43,light rain
243,Harper,LR,4.375,-7.7169,79.36,88,6,7.11,clear sky
244,Fairbanks,US,64.8378,-147.7164,-7.19,77,100,4.61,light snow
245,Saint-Philippe,RE,-21.3585,55.7679,74.79,79,25,5.97,scattered clouds
246,Mundo Nuevo,MX,18.7,-95.5,69.71,84,100,6.69,overcast clouds
247,Ribeira Grande,PT,38.5167,-28.7,59.4,82,20,12.66,few clouds
248,Lata,PT,40.1629,-8.3327,56.71,69,100,0.76,overcast clouds
249,Isangel,VU,-19.55,169.2667,80.22,90,100,22.03,overcast clouds
250,Sitka,US,57.0531,-135.33,37.29,52,100,8.05,overcast clouds
251,Kaeo,NZ,-35.1,173.7833,75.33,98,99,7.61,overcast clouds
252,Nioaque,BR,-21.1353,-55.83,93.99,25,2,7.36,clear sky
253,Mackay,AU,-21.15,149.2,72.68,94,40,6.91,scattered clouds
254,Krasnoselkup,RU,65.7,82.4667,-10.08,87,9,9.8,clear sky
255,Richards Bay,ZA,-28.783,32.0377,72.68,88,2,5.48,clear sky
256,Trinidad,BO,-14.8333,-64.9,93.18,49,40,8.05,scattered clouds
257,Chuy,UY,-33.6971,-53.4616,74.77,59,7,14.09,clear sky
258,Waitati,NZ,-45.75,170.5667,64.47,82,1,2.62,clear sky
259,Santa Maria Del Oro,MX,25.9333,-105.3667,63.21,18,100,4.25,overcast clouds
260,Alice Springs,AU,-23.7,133.8833,62.15,77,0,5.75,clear sky
261,Carutapera,BR,-1.195,-46.02,77.29,91,100,5.53,overcast clouds
262,Muscat,OM,23.6139,58.5922,68.02,59,0,8.16,clear sky
263,Mogzon,RU,51.7435,111.9606,-14.75,99,100,3.8,overcast clouds
264,Rennes,FR,48.1667,-1.6667,43.18,100,0,4.61,clear sky
265,Zhangye,CN,38.9342,100.4517,23.43,43,16,5.1,few clouds
266,Bubaque,GW,11.2833,-15.8333,79.05,77,4,12.64,clear sky
267,Wanning,CN,18.8003,110.3967,69.6,92,31,4.25,scattered clouds
268,Asfi,MA,32.2994,-9.2372,59.38,73,13,9.15,few clouds
269,Palmer,US,42.1584,-72.3287,50.61,52,75,16.11,broken clouds
270,Ust-Tsilma,RU,65.441,52.1498,24.78,88,100,10.92,overcast clouds
271,Kahului,US,20.8947,-156.47,77.85,69,7,10.0,clear sky
272,Mayor Pablo Lagerenza,PY,-19.9309,-60.7718,101.77,18,10,6.2,clear sky
273,Gomel,BY,52.4345,30.9754,33.78,75,0,11.18,clear sky
274,Laguna,US,38.421,-121.4238,76.66,53,0,3.44,clear sky
275,Port Blair,IN,11.6667,92.75,75.24,94,40,2.3,mist
276,Anloga,GH,5.7947,0.8973,84.42,83,0,10.07,clear sky
277,La Roche-Sur-Yon,FR,46.6667,-1.4333,47.64,87,100,9.22,overcast clouds
278,Aklavik,CA,68.2191,-135.0107,-17.57,76,100,6.91,light snow
279,Hokitika,NZ,-42.7167,170.9667,64.69,72,85,1.5,overcast clouds
280,Yima,CN,34.7381,111.8839,35.47,58,86,2.24,overcast clouds
281,Puro,PH,12.4841,123.3827,77.0,82,100,11.97,overcast clouds
282,Lincoln,US,40.8,-96.667,53.17,51,100,10.0,overcast clouds
283,Tchollire,CM,8.4022,14.1698,72.52,12,8,0.47,clear sky
284,Tukrah,LY,32.5341,20.5791,53.08,70,0,9.28,clear sky
285,Linxia,CN,35.6003,103.2064,19.53,93,98,1.81,overcast clouds
286,Altamont,US,42.2068,-121.7372,58.78,52,0,5.01,clear sky
287,Griffith,US,41.5284,-87.4237,30.97,75,100,11.5,overcast clouds
288,Alta Gracia,AR,-31.6529,-64.4283,88.72,31,1,11.95,clear sky
289,Broome,US,42.2506,-75.833,41.77,65,100,12.66,overcast clouds
290,Oranjemund,NA,-28.55,16.4333,64.08,92,4,13.56,clear sky
291,Upernavik,GL,72.7868,-56.1549,-5.62,96,100,6.6,overcast clouds
292,Krasnyy Yar,RU,46.5331,48.3456,35.53,72,81,11.41,broken clouds
293,Mahibadhoo,MV,3.7833,72.9667,81.18,75,48,8.84,scattered clouds
294,Dombarovskiy,RU,50.7587,59.5386,15.66,94,100,15.59,light snow
295,Soria,ES,41.6667,-2.6667,45.86,62,100,3.98,overcast clouds
296,Ziro,IN,27.6333,93.8333,35.65,97,98,2.51,overcast clouds
297,Yanam,IN,16.7333,82.2167,67.17,85,7,1.72,light rain
298,Dali,CN,25.7,100.1833,38.64,85,5,5.14,clear sky
299,Kotelnich,RU,58.3089,48.348,19.65,96,100,6.8,light snow
300,Calama,CL,-22.4667,-68.9333,70.29,21,4,20.71,clear sky
301,Mgachi,RU,51.05,142.2667,6.22,99,100,1.39,overcast clouds
302,Portland,US,45.5234,-122.6762,57.06,83,100,5.75,overcast clouds
303,Bereznik,RU,62.8551,42.7072,25.77,95,100,8.97,light snow
304,Namatanai,PG,-3.6667,152.4333,79.72,82,97,3.0,light rain
305,Camopi,GF,3.1655,-52.3158,74.39,97,100,3.02,overcast clouds
306,Valparaiso,CL,-33.0393,-71.6273,69.44,65,75,10.36,broken clouds
307,Haines Junction,CA,60.7522,-137.5108,28.35,34,42,8.05,scattered clouds
308,Fort Morgan,US,40.2503,-103.8,59.74,43,0,6.91,clear sky
309,Amio,PH,9.3571,122.9413,75.42,90,100,8.9,overcast clouds
310,Port-Gentil,GA,-0.7193,8.7815,81.25,79,100,4.88,overcast clouds
311,Chokurdakh,RU,70.6333,147.9167,-28.66,95,40,8.7,scattered clouds
312,Nanortalik,GL,60.1432,-45.2371,25.99,56,100,9.37,overcast clouds
313,Yazd,IR,31.8972,54.3675,50.11,17,0,4.61,clear sky
314,Hervey Bay,AU,-25.2986,152.8535,68.04,74,0,13.22,clear sky
315,Kieta,PG,-6.2167,155.6333,80.44,82,80,4.27,light rain
316,Tanout,NE,14.9709,8.8879,65.17,11,3,12.08,clear sky
317,Katsuura,JP,35.1333,140.3,37.11,93,100,22.97,overcast clouds
318,Alyangula,AU,-13.8483,136.4192,75.07,100,63,0.0,broken clouds
319,Vestmannaeyjar,IS,63.4427,-20.2734,37.54,55,100,17.65,overcast clouds
320,Alvdal,NO,62.1077,10.6307,24.64,88,52,4.85,broken clouds
321,Pietersburg,ZA,-23.9045,29.4688,70.65,60,47,2.3,scattered clouds
322,Gimli,CA,50.6336,-96.9907,28.13,93,100,8.05,overcast clouds
323,Bathsheba,BB,13.2167,-59.5167,83.01,57,20,25.32,few clouds
324,Uttarkashi,IN,30.7333,78.45,39.9,41,0,7.67,clear sky
325,Lappeenranta,FI,61.0587,28.1887,28.54,89,0,8.05,clear sky
326,Cayenne,GF,4.9333,-52.3333,77.09,87,100,9.22,overcast clouds
327,Te Anau,NZ,-45.4167,167.7167,65.68,70,22,1.7,few clouds
328,Pantai Remis,MY,4.4557,100.6288,75.56,93,100,4.43,moderate rain
329,San Ramon,US,37.7799,-121.978,75.56,38,0,5.99,clear sky
330,Saldanha,ZA,-33.0117,17.9442,64.45,82,0,10.49,clear sky
331,Dobsice,CZ,48.8483,16.0822,48.74,68,70,11.16,broken clouds
332,Fougamou,GA,-1.2154,10.5838,74.75,95,94,1.36,light rain
333,Marsa Matruh,EG,31.3525,27.2453,55.6,58,40,11.5,scattered clouds
334,Colares,PT,38.7992,-9.4469,59.29,73,20,15.01,light rain
335,Acarau,BR,-2.8856,-40.12,81.05,72,86,10.49,overcast clouds
336,La Ronge,CA,55.1001,-105.2842,5.25,72,100,16.11,overcast clouds
337,Kupang,ID,-10.1667,123.5833,77.23,91,99,3.8,overcast clouds
338,Poum,NC,-20.2333,164.0167,81.07,83,100,26.4,overcast clouds
339,Talnakh,RU,69.4865,88.3972,-2.79,96,51,11.54,broken clouds
340,Teguldet,RU,57.3064,88.1667,-18.51,100,54,1.97,broken clouds
341,Lucapa,AO,-8.4192,20.7447,65.14,96,100,3.24,light rain
342,Ola,RU,59.5833,151.2833,-9.81,81,99,7.07,overcast clouds
343,Grindavik,IS,63.8424,-22.4338,32.47,69,75,20.71,broken clouds
344,Pueblo,US,38.2545,-104.6091,61.56,25,0,4.61,clear sky
345,Salym,RU,60.0625,71.4789,-6.18,98,10,5.26,clear sky
346,Ust-Koksa,RU,50.2696,85.6108,-12.87,97,74,1.25,broken clouds
347,Oktyabrskiy,RU,54.4815,53.471,19.72,93,100,10.16,overcast clouds
348,Sioux Lookout,CA,50.1001,-91.917,14.38,85,100,11.5,overcast clouds
349,Hurghada,EG,27.2574,33.8129,57.24,47,0,9.22,clear sky
350,Troina,IT,37.7854,14.5985,41.77,35,0,3.89,clear sky
351,Ayorou,NE,14.7308,0.9174,77.32,8,0,9.98,clear sky
352,Kalengwa,ZM,-13.4659,25.0027,65.03,95,100,1.95,light rain
353,Ballitoville,ZA,-29.539,31.2144,77.14,88,100,4.61,light intensity drizzle
354,Seymchan,RU,62.8833,152.4333,-42.72,100,90,0.78,overcast clouds
355,Bowen,AU,-20.0167,148.2333,71.82,78,57,5.41,broken clouds
356,Opuwo,NA,-18.0607,13.84,67.86,87,100,4.76,light rain
357,Terrace Bay,CA,48.7834,-87.1,10.02,82,100,6.93,overcast clouds
358,Poletayevo,RU,55.0336,61.1138,4.82,96,100,10.29,overcast clouds
359,Bonavista,CA,48.6499,-53.1147,35.6,83,8,11.5,clear sky
360,Srednekolymsk,RU,67.45,153.6833,-39.78,99,50,4.59,scattered clouds
361,Paamiut,GL,61.994,-49.6678,12.29,73,100,7.92,overcast clouds
362,Khonsa,IN,27.0167,95.5667,48.69,93,98,3.02,overcast clouds
363,Booue,GA,-0.0921,11.9385,78.89,75,72,2.8,broken clouds
364,Kerchevskiy,RU,59.946,56.2884,18.3,90,100,12.64,overcast clouds
365,Cabo San Lucas,MX,22.8909,-109.9124,79.52,54,0,4.61,clear sky
366,Piacabucu,BR,-10.4056,-36.4344,81.5,71,3,13.29,clear sky
367,Khani,GE,41.9563,42.9566,33.37,91,98,4.38,overcast clouds
368,Verkhnevilyuysk,RU,63.4453,120.3167,-35.63,100,45,2.48,scattered clouds
369,Novyy Urengoy,RU,66.0833,76.6333,0.41,80,64,15.19,broken clouds
370,Borgosesia,IT,45.7145,8.2799,47.43,84,6,2.84,clear sky
371,Palani,IN,10.4667,77.5333,69.75,74,49,5.37,scattered clouds
372,Omboue,GA,-1.5746,9.2618,78.04,87,100,4.97,light rain
373,Ballinasloe,IE,53.3275,-8.2194,38.34,85,6,7.74,clear sky
374,Tocopilla,CL,-22.092,-70.1979,70.03,65,23,5.17,few clouds
375,Yulara,AU,-25.2406,130.9889,67.84,56,0,2.3,clear sky
376,Flinders,AU,-34.5833,150.8552,71.19,85,90,11.99,light rain
377,Yuzhou,CN,34.1628,113.4639,35.87,72,100,2.39,overcast clouds
378,Phalia,PK,32.4297,73.5775,49.06,38,0,5.35,clear sky
379,Bose,IT,45.4612,8.0137,45.73,79,5,2.26,clear sky
380,Necochea,AR,-38.5473,-58.7368,83.03,42,33,13.76,scattered clouds
381,Cabedelo,BR,-6.9811,-34.8339,84.87,68,10,10.07,clear sky
382,Liverpool,GB,53.4106,-2.9779,44.55,81,75,17.27,broken clouds
383,La Peca,PE,-5.6111,-78.435,73.09,80,97,2.57,light rain
384,Shiraz,IR,29.6036,52.5388,42.24,36,0,0.0,clear sky
385,Atkarsk,RU,51.8718,45.0078,24.64,97,97,6.91,overcast clouds
386,Clonakilty,IE,51.6231,-8.8706,38.41,78,7,6.69,clear sky
387,Prince Rupert,CA,54.3161,-130.3201,41.09,75,100,14.97,overcast clouds
388,Yelan-Kolenovskiy,RU,51.1632,41.151,31.87,92,95,12.59,overcast clouds
389,Saint-Augustin,CA,51.226,-58.6502,22.64,96,100,2.08,overcast clouds
390,Meulaboh,ID,4.1363,96.1285,75.54,83,100,2.3,overcast clouds
391,Apiai,BR,-24.5094,-48.8425,75.27,55,39,7.4,scattered clouds
392,Morondava,MG,-20.2833,44.2833,81.37,79,100,9.62,overcast clouds
393,Iqaluit,CA,63.7506,-68.5145,-7.87,84,100,5.75,light snow
394,Greenville,US,35.6127,-77.3663,66.94,24,0,12.66,clear sky
395,Nizhniy Ingash,RU,56.2,96.53,-11.49,97,98,2.59,overcast clouds
396,Beloha,MG,-25.1667,45.05,72.86,90,42,9.4,scattered clouds
397,Jati,PK,24.3539,68.2671,66.74,34,0,6.51,clear sky
398,Lebedinyy,RU,58.5167,125.5167,-30.64,100,100,3.58,overcast clouds
399,Oranjestad,AW,12.524,-70.027,78.91,77,46,19.69,scattered clouds
400,Nizwa,OM,22.9333,57.5333,63.48,44,1,1.45,clear sky
401,Nasirabad,IN,26.3,74.7333,54.68,44,0,4.12,clear sky
402,Gayny,RU,60.3071,54.3241,20.97,93,100,10.87,light snow
403,Noyabrsk,RU,63.1994,75.4507,-5.62,92,72,12.01,broken clouds
404,Price,US,39.5994,-110.8107,51.06,37,0,3.44,clear sky
405,Kawasaki,JP,35.5206,139.7172,37.09,94,75,19.57,broken clouds
406,Cornelius,US,35.4868,-80.8601,66.42,23,0,9.22,clear sky
407,Mokrousovo,RU,55.8103,66.7653,-7.01,89,5,12.06,clear sky
408,Alofi,NU,-19.0595,-169.9187,84.09,74,75,6.91,broken clouds
409,Aswan,EG,24.0934,32.907,58.3,33,0,9.22,clear sky
410,Lodwar,KE,3.1191,35.5973,85.6,31,3,7.43,clear sky
411,Alekseyevsk,RU,57.8406,108.3492,-23.17,100,92,2.64,overcast clouds
412,Ambilobe,MG,-13.2,49.05,73.83,99,99,3.83,heavy intensity rain
413,Jacareacanga,BR,-6.2222,-57.7528,85.44,65,48,3.24,scattered clouds
414,Tasiilaq,GL,65.6145,-37.6368,17.76,58,48,7.61,scattered clouds
415,Port Hardy,CA,50.6996,-127.4199,48.38,81,100,8.05,overcast clouds
416,Igarka,RU,67.4667,86.5833,-18.31,96,6,10.25,clear sky
417,Amos,CA,48.5669,-78.1162,21.47,89,100,8.23,overcast clouds
418,Blyth,GB,55.1271,-1.5086,41.47,68,20,10.36,few clouds
419,Warrnambool,AU,-38.3833,142.4833,54.81,76,35,10.78,scattered clouds
420,Chaman,PK,30.9236,66.4512,44.26,32,0,1.99,clear sky
421,Nantucket,US,41.2835,-70.0995,50.14,78,40,16.11,scattered clouds
422,Shimoda,JP,34.6667,138.95,37.11,85,99,15.77,overcast clouds
423,Yar-Sale,RU,66.8333,70.8333,8.29,90,98,19.8,overcast clouds
424,Northam,GB,51.0333,-4.2167,44.62,70,7,15.99,clear sky
425,Bagan,RU,54.1001,77.6646,-24.09,100,44,4.68,scattered clouds
426,Lefka,CY,35.1106,32.8506,50.88,59,0,2.1,clear sky
427,Mitu,CO,1.1983,-70.1733,81.43,74,100,2.21,overcast clouds
428,Narsaq,GL,60.9167,-46.05,12.42,61,79,8.84,broken clouds
429,Badvel,IN,14.75,79.05,65.66,86,7,2.35,clear sky
430,Atambua,ID,-9.1061,124.8925,72.34,88,100,1.28,moderate rain
431,Svetlyy,RU,54.675,20.1347,37.96,93,100,11.95,overcast clouds
432,Miri,MY,4.4148,114.0089,77.14,94,40,3.44,scattered clouds
433,Bardiyah,LY,31.7561,25.0865,53.51,65,4,8.46,clear sky
434,Lydenburg,ZA,-25.0978,30.4597,66.4,55,67,2.19,broken clouds
435,Lagoa,PT,39.05,-27.9833,58.57,73,93,7.09,overcast clouds
436,Nicoya,CR,10.1483,-85.452,90.95,36,27,6.2,scattered clouds
437,Sabzevar,IR,36.2126,57.6819,40.28,45,0,6.91,clear sky
438,Plaeng Yao,TH,13.5847,101.284,82.8,79,74,3.2,light rain
439,Dudinka,RU,69.4058,86.1778,-2.38,88,7,19.17,clear sky
440,Yerbogachen,RU,61.2767,108.0108,-20.88,100,88,2.64,overcast clouds
441,Ewa Beach,US,21.3156,-158.0072,80.55,58,0,5.75,clear sky
442,Huntington,US,38.4193,-82.4452,55.11,28,0,11.5,clear sky
443,Malanje,AO,-9.5402,16.341,63.57,81,78,2.39,broken clouds
444,Ketchikan,US,55.3422,-131.6461,39.67,65,75,9.22,broken clouds
445,Amarpatan,IN,24.3167,80.9833,52.66,69,0,3.8,clear sky
446,Zaysan,KZ,47.4667,84.8667,3.88,90,100,2.19,overcast clouds
447,Vaitape,PF,-16.5167,-151.75,81.18,75,51,16.24,broken clouds
448,Pinheiro Machado,BR,-31.5783,-53.3811,79.05,67,2,14.09,clear sky
449,Si Chiang Mai,TH,17.9564,102.5867,74.95,99,44,4.0,scattered clouds
450,San-Pedro,CI,4.7485,-6.6363,79.45,90,0,7.74,clear sky
451,Englewood,US,39.6478,-104.9878,59.04,25,75,9.22,broken clouds
452,Jiuquan,CN,39.7432,98.5174,23.77,42,58,3.8,broken clouds
453,Pervomayskiy,RU,53.2485,40.2871,31.14,91,100,11.54,overcast clouds
454,Coro,VE,11.4045,-69.6734,82.96,63,82,21.39,broken clouds
455,Mehamn,NO,71.0357,27.8492,24.98,82,98,10.4,overcast clouds
456,Houma,US,29.5958,-90.7195,70.0,38,16,4.36,few clouds
457,Odweyne,SO,9.4092,45.064,64.53,28,0,12.57,clear sky
458,Barquisimeto,VE,10.0739,-69.3228,86.63,45,40,4.61,scattered clouds
459,Acapulco,MX,16.8634,-99.8901,85.82,58,75,6.91,broken clouds
460,Teya,RU,60.3778,92.6267,-17.59,100,41,0.31,scattered clouds
461,Axim,GH,4.8699,-2.2405,79.18,87,0,8.75,clear sky
462,Oksfjord,NO,70.2396,22.3479,28.58,93,100,10.29,snow
463,Vila Velha,BR,-20.3297,-40.2925,76.95,86,75,10.36,moderate rain
464,Balta,UA,47.9355,29.6198,39.36,76,47,6.55,scattered clouds
465,Yumen,CN,40.2833,97.2,22.89,49,97,12.93,overcast clouds
466,Vila,PT,42.0304,-8.1588,46.74,79,69,2.35,broken clouds
467,Honiara,SB,-9.4333,159.95,80.71,81,65,5.55,moderate rain
468,Grand Gaube,MU,-20.0064,57.6608,77.4,78,1,6.53,clear sky
469,Mocuba,MZ,-16.8392,36.9856,72.82,93,83,2.71,broken clouds
470,Samarai,PG,-10.6167,150.6667,81.36,63,81,12.88,broken clouds
471,Wewak,PG,-3.5534,143.6268,78.48,86,100,3.62,overcast clouds
472,Novoagansk,RU,61.9449,76.6625,-12.87,99,68,5.7,broken clouds
473,Warmbad,NA,-28.45,18.7333,85.8,14,2,11.74,clear sky
474,Surazh,RU,53.0175,32.3918,25.41,96,99,7.29,overcast clouds
475,Khovu-Aksy,RU,51.1333,93.6,-19.59,96,22,3.36,few clouds
476,Kiruna,SE,67.8557,20.2251,13.12,92,65,2.3,broken clouds
477,Weligama,LK,5.9667,80.4167,74.75,89,16,5.5,few clouds
478,Baykit,RU,61.67,96.37,-16.85,97,8,3.02,clear sky
479,Healesville,AU,-37.65,145.5167,62.22,85,14,3.0,few clouds
480,Sakaiminato,JP,35.55,133.2333,35.58,93,75,4.61,broken clouds
481,Bandarbeyla,SO,9.4942,50.8122,73.76,62,13,17.09,few clouds
482,Machali,CL,-34.1833,-70.6667,70.88,56,99,10.47,overcast clouds
483,Ballina,AU,-28.8667,153.5667,66.16,93,40,5.75,scattered clouds
484,Chachapoyas,PE,-6.2317,-77.869,57.34,96,99,3.47,moderate rain
485,Sayat,TM,38.7839,63.8803,46.27,39,74,14.05,broken clouds
486,Camacha,PT,33.0833,-16.3333,61.56,88,20,4.61,few clouds
487,Zyryanka,RU,65.75,150.85,-38.45,98,39,5.44,scattered clouds
488,Mumford,GH,5.2618,-0.759,79.95,85,0,6.55,clear sky
489,Dalmatovo,RU,56.26,62.9362,2.07,95,100,11.97,overcast clouds
490,Santa Rosa,PH,14.3122,121.1114,79.11,76,100,12.08,overcast clouds
491,Puerto Escondido,MX,15.85,-97.0667,85.03,61,0,8.05,clear sky
492,Batsfjord,NO,70.6345,29.7185,26.6,88,83,8.66,broken clouds
493,Ocampo,MX,21.65,-101.5,71.28,19,1,10.29,clear sky
494,Marsh Harbour,BS,26.5412,-77.0636,73.02,74,80,12.26,broken clouds
495,Loa Janan,ID,-0.583,117.095,72.52,99,100,1.66,overcast clouds
496,Kidal,ML,18.4411,1.4078,71.89,8,95,9.19,overcast clouds
497,Novikovo,RU,51.1537,37.8879,31.73,92,97,9.62,overcast clouds
498,Touros,BR,-5.1989,-35.4608,86.9,71,53,13.51,broken clouds
499,Terney,RU,45.0503,136.6092,16.7,81,32,5.1,scattered clouds
500,Santa Cruz,BO,-17.8,-63.1667,93.25,40,20,13.8,few clouds
501,Pevek,RU,69.7008,170.3133,-32.24,98,100,8.81,overcast clouds
502,Ucluelet,CA,48.9329,-125.5528,47.08,94,54,1.86,broken clouds
503,Sohagpur,IN,22.7,78.2,54.28,50,2,4.34,clear sky
504,Jinan,CN,36.6683,116.9972,38.34,64,51,4.14,broken clouds
505,Pangnirtung,CA,66.1451,-65.7125,-2.2,55,100,3.44,overcast clouds
506,Marang,MY,5.2056,103.2059,75.11,96,100,2.42,light rain
507,Roald,NO,62.5833,6.1333,34.9,64,40,19.57,snow
508,Jalingo,NG,8.8833,11.3667,76.69,12,3,4.36,clear sky
509,Totma,RU,59.9747,42.7642,25.25,97,100,7.16,light snow
510,Pisco,PE,-13.7,-76.2167,80.02,69,0,10.36,clear sky
511,Ulaanbaatar,MN,47.9077,106.8832,-18.27,69,0,4.47,clear sky
512,Cabra,ES,37.4725,-4.4421,55.13,54,100,2.06,overcast clouds
513,College Place,US,46.0493,-118.3883,69.6,46,0,14.97,clear sky
514,Macherla,IN,16.4833,79.4333,68.83,77,6,5.93,clear sky
515,Kruisfontein,ZA,-34.0033,24.7314,61.83,86,41,2.35,scattered clouds
516,Grudziadz,PL,53.4841,18.7537,40.82,73,100,7.81,overcast clouds
517,Okhotsk,RU,59.3833,143.3,3.88,86,100,5.35,overcast clouds
518,Pathalgaon,IN,22.5667,83.4667,56.14,58,1,6.82,clear sky
519,Derzhavinsk,KZ,51.1,66.3167,6.26,96,80,11.97,broken clouds
520,Pacific Grove,US,36.6177,-121.9166,79.81,33,0,3.0,clear sky
521,Kerema,PG,-7.9631,145.7785,77.4,88,100,4.56,overcast clouds
522,Ellisras,ZA,-23.6649,27.7443,71.26,69,99,5.5,overcast clouds
523,Vostok,RU,46.4856,135.8833,4.37,99,100,3.24,overcast clouds
524,Olinda,BR,-8.0089,-34.8553,83.93,65,20,6.91,few clouds
525,Brokopondo,SR,4.75,-55.1667,79.47,77,100,7.4,overcast clouds
526,Yinchuan,CN,38.4681,106.2731,22.5,76,100,2.71,overcast clouds
527,Diffa,NE,13.3154,12.6113,68.13,17,41,9.78,scattered clouds
528,Pitangui,BR,-19.6828,-44.8903,70.84,94,98,2.21,moderate rain
529,Varhaug,NO,58.6147,5.6457,37.47,76,52,15.32,broken clouds
530,Iguape,BR,-24.7081,-47.5553,77.56,71,0,8.99,clear sky
531,Yaan,NG,7.3833,8.5667,84.18,9,21,5.59,few clouds
532,Yanji,CN,42.9075,129.5078,14.27,94,100,1.21,overcast clouds
533,Kandrian,PG,-6.2167,149.55,77.88,86,97,4.56,light rain
534,Eyl,SO,7.9803,49.8164,72.18,64,1,16.46,clear sky
535,Vanimo,PG,-2.6741,141.3028,77.29,88,100,2.33,overcast clouds
536,Takoradi,GH,4.8845,-1.7554,79.65,87,0,7.0,clear sky
537,Xixiang,CN,35.1628,112.865,37.76,57,97,2.71,overcast clouds
538,Cranendonck,NL,51.2775,5.5837,43.12,89,100,6.91,light rain
539,Hospet,IN,15.2667,76.4,70.81,52,4,8.28,clear sky
540,Nioro,GM,13.35,-15.75,86.0,10,59,8.9,broken clouds
541,Oudtshoorn,ZA,-33.5907,22.2014,64.76,81,52,4.76,broken clouds
542,Dzhebariki-Khaya,RU,62.2167,135.8,-38.25,100,92,0.87,overcast clouds
543,Kualakapuas,ID,-3.0091,114.3876,77.16,95,100,0.2,light rain
544,Tomatlan,MX,19.9333,-105.25,86.38,21,0,10.65,clear sky
545,Can Tho,VN,10.0333,105.7833,75.18,94,0,4.61,clear sky
546,Boende,CD,-0.2167,20.8667,81.52,46,86,2.98,overcast clouds
547,Kainan,JP,34.15,135.2,44.01,80,8,9.4,clear sky
548,Shache,CN,38.4167,77.2406,34.29,35,34,5.1,scattered clouds
549,Dukat,RU,62.55,155.55,-27.38,78,61,3.29,broken clouds
550,Chara,RU,56.9064,118.2631,-20.72,89,98,1.61,overcast clouds
551,Nyurba,RU,63.2842,118.3319,-32.89,100,88,2.86,overcast clouds
552,Tirumullaivasal,IN,11.2333,79.8333,78.62,76,100,13.42,light rain
553,Lubango,AO,-14.9172,13.4925,57.43,79,95,1.36,overcast clouds
554,Mahebourg,MU,-20.4081,57.7,77.29,88,40,2.3,scattered clouds
555,Lahij,YE,13.1667,44.5833,68.32,77,48,6.76,scattered clouds
556,Kondinskoye,RU,59.6481,67.41,-2.88,93,6,9.75,clear sky
557,Ust-Kulom,RU,61.6864,53.6902,22.44,93,100,10.49,light snow
558,Kirgiz-Miyaki,RU,53.6324,54.7979,19.63,93,100,15.12,light snow
559,Luanda,AO,-8.8368,13.2343,82.4,51,40,5.75,scattered clouds
560,Usinsk,RU,65.9939,57.5281,24.46,94,100,22.5,light snow
561,Maldonado,UY,-34.6667,-54.9167,83.59,48,0,11.39,clear sky
562,Misratah,LY,32.3754,15.0925,57.07,63,9,4.29,clear sky
563,Lucea,JM,18.451,-78.1736,82.26,77,14,9.46,few clouds
564,Dongying,CN,37.4564,118.4856,37.17,63,3,4.32,clear sky
565,Bintulu,MY,3.1667,113.0333,75.61,100,40,2.3,scattered clouds
566,Port Lincoln,AU,-34.7333,135.8667,61.68,72,8,15.3,clear sky
567,Grootfontein,NA,-19.5667,18.1167,65.77,94,42,13.8,scattered clouds
568,Porto Novo,BJ,6.4965,2.6036,84.02,82,0,8.79,clear sky
569,Kununurra,AU,-15.7667,128.7333,76.98,94,99,0.0,overcast clouds
570,Nuuk,GL,64.1835,-51.7216,27.21,80,100,11.5,light snow
571,Mahanje,TZ,-9.9333,35.3333,65.16,96,100,2.24,light rain
572,Kudligi,IN,14.9,76.3833,69.85,50,4,8.32,clear sky
573,Shakiso,ET,5.75,38.9167,66.94,41,87,3.69,overcast clouds
574,Nhamunda,BR,-2.1861,-56.7131,79.74,90,100,3.11,overcast clouds
575,Talcahuano,CL,-36.7167,-73.1167,71.28,40,0,21.85,clear sky
576,Waingapu,ID,-9.6567,120.2641,76.68,86,100,3.02,overcast clouds
577,Rocha,UY,-34.4833,-54.3333,75.87,56,0,15.3,clear sky
578,Poronaysk,RU,49.2167,143.1167,4.68,96,44,4.52,scattered clouds
579,Harrison,US,30.4091,-89.0436,71.35,36,0,9.22,clear sky
580,Lasa,IT,46.6166,10.7002,35.62,76,15,1.79,few clouds
581,Rawlins,US,41.7911,-107.2387,42.69,53,75,23.02,broken clouds
582,Saint-Joseph,RE,-21.3667,55.6167,73.78,81,25,3.49,scattered clouds
583,Rafraf,TN,37.1904,10.1837,52.11,65,0,8.88,clear sky
584,Takestan,IR,36.0696,49.6959,46.53,79,99,6.8,overcast clouds
585,Bolshevik,BY,54.0065,27.5692,33.42,95,100,4.7,overcast clouds
586,Danville,US,36.586,-79.395,65.98,24,0,21.85,clear sky
587,Bassila,BJ,9.0081,1.6654,79.99,13,1,3.65,clear sky
588,Caucaia,BR,-3.7361,-38.6531,84.15,73,20,10.36,few clouds
589,Zaraza,VE,9.3503,-65.3245,87.31,46,36,15.14,scattered clouds
590,Marzuq,YE,14.4,46.4667,61.5,50,94,2.91,overcast clouds
591,Rumonge,BI,-3.9736,29.4386,70.77,85,98,1.88,light rain
592,Mecca,SA,21.4267,39.8261,68.63,60,2,8.7,clear sky
593,Doha,QA,25.2867,51.5333,62.49,82,0,4.61,clear sky
594,Bucerias,MX,20.75,-105.3333,75.18,53,0,12.66,clear sky
595,Whitefish,US,48.4111,-114.3376,46.15,66,20,13.8,few clouds
596,Domoni,KM,-12.2569,44.5319,79.07,84,100,5.5,overcast clouds
597,Mondlo,ZA,-27.983,30.7177,69.78,59,76,3.87,broken clouds
598,Taga,RO,46.95,24.05,34.48,97,94,2.08,overcast clouds
599,Florianopolis,BR,-27.6146,-48.5012,78.26,64,40,11.5,scattered clouds
600,Sao Filipe,CV,14.8961,-24.4956,78.22,54,100,6.73,overcast clouds
601,Khromtau,KZ,50.2503,58.4347,16.36,95,100,14.47,snow
602,Vallenar,CL,-28.5708,-70.7581,79.95,36,0,10.45,clear sky
603,Husavik,IS,66.0449,-17.3389,30.11,80,98,11.72,overcast clouds
604,Qaqortoq,GL,60.7167,-46.0333,12.7,63,98,8.37,overcast clouds
605,Birao,CF,10.2849,22.7882,75.4,13,43,8.34,scattered clouds
606,Wamba,NG,8.9333,8.6,75.33,10,7,5.59,clear sky
607,Sarmanovo,RU,55.2553,52.5891,20.08,94,100,9.26,overcast clouds
608,Morehead,US,37.2711,-87.1764,56.14,35,0,10.36,clear sky
609,Den Helder,NL,52.9599,4.7593,43.02,68,40,16.11,scattered clouds
610,Turukhansk,RU,65.8167,87.9833,-24.99,99,12,4.47,few clouds
611,Nassau,US,40.7507,-73.5829,54.18,39,4,8.01,clear sky
612,Kashi,CN,39.4547,75.9797,33.01,27,20,8.95,few clouds
613,Orthez,FR,43.4884,-0.7724,53.76,82,69,4.68,broken clouds
614,Bressanone,IT,46.715,11.656,42.46,83,7,1.52,clear sky
615,Lubbock,US,33.6001,-101.8338,62.38,22,20,8.05,few clouds
616,Kenai,US,60.5544,-151.2583,27.03,74,0,18.41,light snow
617,Le Port,RE,-20.9373,55.2919,75.2,81,42,3.94,scattered clouds
618,Kloulklubed,PW,7.0419,134.2556,75.7,74,100,13.91,overcast clouds
619,Vila Franca Do Campo,PT,37.7167,-25.4333,59.2,76,90,8.28,overcast clouds
620,Ronne,DK,55.1009,14.7066,37.31,93,20,10.36,few clouds
621,Ecoporanga,BR,-18.3733,-40.8306,76.6,84,60,6.49,broken clouds
622,Cockburn Town,TC,21.4612,-71.1419,77.77,74,0,16.64,clear sky
623,Wildberg,DE,48.6234,8.7452,44.91,83,100,7.11,overcast clouds
624,Collie,AU,-33.3667,116.15,61.99,56,0,2.64,clear sky
625,Vao,NC,-22.6667,167.4833,81.05,88,100,39.75,moderate rain
626,Batagay,RU,67.6333,134.6333,-34.73,99,100,1.41,overcast clouds
627,Kikwit,CD,-5.041,18.8162,74.61,81,99,2.77,light rain
628,Nizhniy Kuranakh,RU,58.8353,125.4869,-30.95,100,100,2.37,overcast clouds
629,Wadi Musa,JO,30.3222,35.4793,38.88,90,83,10.63,broken clouds
630,Bantry,IE,51.6833,-9.45,38.68,78,10,4.38,clear sky
631,Aberdeen,GB,57.1437,-2.0981,36.82,73,46,17.27,scattered clouds
632,Malayal,PH,7.208,121.942,78.46,83,100,3.78,overcast clouds
633,Kuzino,RU,57.0224,59.4412,12.07,88,100,12.08,overcast clouds
634,Shingu,JP,33.7333,135.9833,43.92,84,5,6.64,clear sky
635,Rochester,US,43.1548,-77.6156,38.98,77,100,13.8,overcast clouds
636,Emerald,AU,-23.5333,148.1667,71.74,88,0,3.44,clear sky
637,Nouadhibou,MR,20.931,-17.0347,76.98,41,97,8.05,overcast clouds
638,Wicklow,IE,53.0,-6.4167,34.05,87,8,5.28,clear sky
639,Mercedes,AR,-34.6515,-59.4307,89.85,20,1,8.95,clear sky
640,Kuruman,ZA,-27.4524,23.4325,70.0,44,71,2.89,broken clouds
641,Buin,CL,-33.7333,-70.75,78.06,39,99,11.65,overcast clouds
642,Beyneu,KZ,45.3167,55.2,34.32,87,100,16.49,overcast clouds
643,Zakopane,PL,49.299,19.9489,36.03,89,99,4.9,overcast clouds
644,Bhatkal,IN,13.9667,74.5667,74.68,63,1,4.54,clear sky
645,Dicabisagan,PH,17.0818,122.4157,74.1,88,100,5.95,overcast clouds
646,De Aar,ZA,-30.6497,24.0123,74.7,12,0,7.54,clear sky
647,Vanavara,RU,60.34,102.2797,-20.11,100,98,0.98,overcast clouds
648,Mareeba,AU,-17.0,145.4333,70.45,95,18,1.25,few clouds
649,Sao Jose Da Coroa Grande,BR,-8.8978,-35.1478,80.98,68,83,14.47,broken clouds
650,Upata,VE,8.0086,-62.3989,87.19,37,65,7.2,broken clouds
651,Quixeramobim,BR,-5.1992,-39.2928,83.37,52,100,1.59,overcast clouds
652,Buchanan,LR,5.8808,-10.0467,80.56,88,57,6.6,broken clouds
653,Bud,US,39.447,-86.1758,41.76,71,74,12.46,broken clouds
654,Halifax,CA,44.6453,-63.5724,38.34,79,100,13.8,overcast clouds
655,Kilindoni,TZ,-7.9139,39.6668,81.16,77,78,12.46,broken clouds
656,Parana,AR,-31.732,-60.5238,97.3,26,97,5.55,overcast clouds
657,Bay Roberts,CA,47.5999,-53.2648,39.51,75,27,1.01,scattered clouds
658,Erdenet,MN,49.0333,104.0833,-13.61,100,91,1.83,overcast clouds
659,Kontagora,NG,10.3999,5.4695,80.67,10,0,7.63,clear sky
660,Lanzhou,CN,36.0564,103.7922,24.08,95,100,0.25,snow
661,Praia Da Vitoria,PT,38.7333,-27.0667,59.25,82,40,7.27,scattered clouds
662,Baiao,BR,-2.7906,-49.6717,77.83,90,98,2.33,moderate rain
663,Toul,FR,48.6667,5.9167,46.69,81,100,10.36,overcast clouds
664,Salamanca,ES,40.8333,-6.0,45.99,67,93,2.44,overcast clouds
665,Khvoynaya,RU,58.9,34.5333,29.57,96,100,9.1,snow
666,Koslan,RU,63.4564,48.8989,21.74,92,100,9.95,overcast clouds
667,Una,IN,20.8167,71.0333,69.82,36,7,15.77,clear sky
668,Luganville,VU,-15.5333,167.1667,80.91,77,100,5.39,overcast clouds
669,Namibe,AO,-15.1961,12.1522,73.65,83,100,4.34,overcast clouds
670,Padang,ID,-0.9492,100.3543,77.02,78,100,3.96,overcast clouds
671,Maragogi,BR,-9.0122,-35.2225,80.78,68,78,14.07,broken clouds
672,Korla,CN,41.7597,86.1469,26.65,51,10,3.78,clear sky
673,Meadow Lake,US,34.8014,-106.5436,54.54,27,2,5.12,clear sky
674,Malmesbury,ZA,-33.4608,18.7271,65.75,82,0,4.9,clear sky
675,Seredka,RU,58.1584,28.1858,33.55,87,100,10.42,overcast clouds
676,Waipawa,NZ,-41.4122,175.5153,67.46,85,100,6.73,overcast clouds
677,Lazarev,RU,52.225,141.5131,15.21,95,100,6.76,light snow
678,Kabare,CD,-2.4683,28.8242,60.73,91,100,0.96,overcast clouds
679,Tres Arroyos,AR,-38.3739,-60.2798,81.81,39,99,3.33,overcast clouds
680,Ranot,TH,7.7777,100.3213,79.65,79,100,9.91,overcast clouds
681,Morro Bay,US,35.3658,-120.8499,86.34,24,0,2.59,clear sky
682,Bilibino,RU,68.0546,166.4372,-42.66,100,73,1.77,broken clouds
683,Mehran,IR,33.1222,46.1646,54.88,40,51,18.63,broken clouds
684,Jackson,US,42.4165,-122.8345,64.92,54,0,0.0,clear sky
685,Tshela,CD,-4.9833,12.9333,72.37,97,5,1.5,clear sky
686,Hobyo,SO,5.3505,48.5268,75.61,66,44,19.93,scattered clouds
687,Taitung,TW,22.7583,121.1444,67.5,80,49,8.01,scattered clouds
688,Lac Du Bonnet,CA,50.2536,-96.0612,25.23,94,100,6.38,light snow
689,Pishin,PK,30.5803,66.9961,41.59,38,0,1.97,clear sky
690,Khandyga,RU,62.6667,135.6,-40.54,100,98,0.81,overcast clouds
691,Thunder Bay,CA,48.4001,-89.3168,20.98,75,100,5.75,overcast clouds
692,Baruun-Urt,MN,46.6806,113.2792,-4.94,98,93,0.96,overcast clouds
693,Bourail,NC,-21.5667,165.4833,79.23,90,100,16.31,moderate rain
694,Madison,US,34.7334,-86.5667,65.39,26,0,11.99,clear sky
695,Nakhon Thai,TH,17.1006,100.8374,76.26,48,57,1.66,broken clouds
696,Hazorasp,UZ,41.3194,61.0742,37.24,52,100,7.94,overcast clouds
697,Walvis Bay,NA,-22.9575,14.5053,72.55,78,6,6.91,clear sky
698,Prainha,BR,-1.8,-53.48,78.96,89,77,3.09,broken clouds
699,Kangaatsiaq,GL,68.3065,-53.4641,-10.1,91,100,8.34,overcast clouds
700,Buenos Aires,AR,-34.6132,-58.3772,88.02,58,0,12.66,clear sky
701,Port Keats,AU,-14.25,129.55,76.96,92,92,6.38,overcast clouds
702,Guangyuan,CN,32.442,105.823,39.27,81,84,2.3,broken clouds
703,Curuguaty,PY,-24.4694,-55.6945,94.3,25,11,6.22,few clouds
704,Shihezi,CN,44.3,86.0333,13.93,97,100,1.14,overcast clouds
705,Cascais,PT,38.6979,-9.4215,60.15,72,20,15.01,light rain
706,Broken Hill,AU,-31.95,141.4333,60.51,59,0,14.97,clear sky
707,Sao Felix Do Xingu,BR,-6.6447,-51.995,76.71,96,100,0.56,overcast clouds
708,Flin Flon,CA,54.7682,-101.865,3.04,72,100,11.5,light snow
